[
   {
      "stopName":"Village",
      "longitude":7.0069965650522263,
      "latitude":43.642457498045012,
      "originalId":620579,
      "logicalId":817,
      "localityCode":"06152",
      "operatorId":9,
      "operatorName":"LIGNES d\u0027AZUR - CG06"
   },
   {
      "stopName":"Hôtel de Ville",
      "longitude":7.00715513704622,
      "latitude":43.640442746931221,
      "originalId":620578,
      "logicalId":816,
      "localityCode":"06152",
      "operatorId":9,
      "operatorName":"LIGNES d\u0027AZUR - CG06"
   },
   {
      "stopName":"Pont de la Brague",
      "longitude":7.0051669691913938,
      "latitude":43.63931307636819,
      "originalId":620577,
      "logicalId":815,
      "localityCode":"06152",
      "operatorId":9,
      "operatorName":"LIGNES d\u0027AZUR - CG06"
   },
   {
      "stopName":"Hauts de Valbonne",
      "longitude":7.0030662397645029,
      "latitude":43.635928232670068,
      "originalId":620576,
      "logicalId":2468,
      "localityCode":"06152",
      "operatorId":9,
      "operatorName":"LIGNES d\u0027AZUR - CG06"
   },
   {
      "stopName":"Val de Cuberte",
      "longitude":7.0003654043697292,
      "latitude":43.633478657520065,
      "originalId":620580,
      "logicalId":2484,
      "localityCode":"06152",
      "operatorId":9,
      "operatorName":"LIGNES d\u0027AZUR - CG06"
   },
   {
      "stopName":"La Carrière",
      "longitude":6.9992127949640812,
      "latitude":43.630692142351073,
      "originalId":620575,
      "logicalId":2469,
      "localityCode":"06152",
      "operatorId":9,
      "operatorName":"LIGNES d\u0027AZUR - CG06"
   },
   {
      "stopName":"Les Fauvettes",
      "longitude":6.9987886940293169,
      "latitude":43.625110014441866,
      "originalId":620574,
      "logicalId":814,
      "localityCode":"06152",
      "operatorId":9,
      "operatorName":"LIGNES d\u0027AZUR - CG06"
   },
   {
      "stopName":"La Petite Ferme",
      "longitude":7.0018320288448122,
      "latitude":43.623736163318782,
      "originalId":620573,
      "logicalId":2470,
      "localityCode":"06152",
      "operatorId":9,
      "operatorName":"LIGNES d\u0027AZUR - CG06"
   },
   {
      "stopName":"Peyniblou",
      "longitude":7.0078633422913592,
      "latitude":43.623601717350162,
      "originalId":620572,
      "logicalId":813,
      "localityCode":"06152",
      "operatorId":9,
      "operatorName":"LIGNES d\u0027AZUR - CG06"
   },
   {
      "stopName":"Val Martin",
      "longitude":7.0148510191732871,
      "latitude":43.623506578404346,
      "originalId":620571,
      "logicalId":2485,
      "localityCode":"06152",
      "operatorId":9,
      "operatorName":"LIGNES d\u0027AZUR - CG06"
   },
   {
      "stopName":"Sophia - Gare routière",
      "longitude":7.0374694808069069,
      "latitude":43.623875792838604,
      "originalId":620560,
      "logicalId":2467,
      "localityCode":"06152",
      "operatorId":9,
      "operatorName":"LIGNES d\u0027AZUR - CG06"
   },
   {
      "stopName":"Les Cardoulines",
      "longitude":7.0422543781822853,
      "latitude":43.625774547902509,
      "originalId":620581,
      "logicalId":2472,
      "localityCode":"06152",
      "operatorId":9,
      "operatorName":"LIGNES d\u0027AZUR - CG06"
   },
   {
      "stopName":"Garbejaire",
      "longitude":7.0450079922118061,
      "latitude":43.623304537218523,
      "originalId":620582,
      "logicalId":2466,
      "localityCode":"06152",
      "operatorId":9,
      "operatorName":"LIGNES d\u0027AZUR - CG06"
   },
   {
      "stopName":"Pompidou",
      "longitude":7.0495211038716477,
      "latitude":43.624521493631178,
      "originalId":620583,
      "logicalId":2480,
      "localityCode":"06152",
      "operatorId":9,
      "operatorName":"LIGNES d\u0027AZUR - CG06"
   },
   {
      "stopName":"Les Bruscs",
      "longitude":7.0534486036064727,
      "latitude":43.626898365416857,
      "originalId":620584,
      "logicalId":2471,
      "localityCode":"06152",
      "operatorId":9,
      "operatorName":"LIGNES d\u0027AZUR - CG06"
   },
   {
      "stopName":"Eganaude",
      "longitude":7.0575978894819658,
      "latitude":43.622980438159658,
      "originalId":620585,
      "logicalId":812,
      "localityCode":"06018",
      "operatorId":9,
      "operatorName":"LIGNES d\u0027AZUR - CG06"
   },
   {
      "stopName":"La Bouillide",
      "longitude":7.055593711614212,
      "latitude":43.619700380328396,
      "originalId":620588,
      "logicalId":811,
      "localityCode":"06152",
      "operatorId":9,
      "operatorName":"LIGNES d\u0027AZUR - CG06"
   },
   {
      "stopName":"Les Belugues",
      "longitude":7.0581101741643906,
      "latitude":43.6176545594459,
      "originalId":620591,
      "logicalId":810,
      "localityCode":"06018",
      "operatorId":9,
      "operatorName":"LIGNES d\u0027AZUR - CG06"
   },
   {
      "stopName":"Sophie Laffite",
      "longitude":7.0544688827270612,
      "latitude":43.615436477633253,
      "originalId":620553,
      "logicalId":2482,
      "localityCode":"06152",
      "operatorId":9,
      "operatorName":"LIGNES d\u0027AZUR - CG06"
   },
   {
      "stopName":"Skema (Céram)",
      "longitude":7.0554645132726037,
      "latitude":43.614258478318938,
      "originalId":620552,
      "logicalId":3647,
      "localityCode":"06152",
      "operatorId":9,
      "operatorName":"LIGNES d\u0027AZUR - CG06"
   },
   {
      "stopName":"A.Caquot",
      "longitude":7.0605877640127011,
      "latitude":43.617042047966066,
      "originalId":620590,
      "logicalId":1116,
      "localityCode":"06018",
      "operatorId":9,
      "operatorName":"LIGNES d\u0027AZUR - CG06"
   },
   {
      "stopName":"Inria",
      "longitude":7.0685843088088109,
      "latitude":43.61656613546414,
      "originalId":620589,
      "logicalId":1118,
      "localityCode":"06018",
      "operatorId":9,
      "operatorName":"LIGNES d\u0027AZUR - CG06"
   },
   {
      "stopName":"Les Templiers",
      "longitude":7.072972008718815,
      "latitude":43.616869156022418,
      "originalId":620586,
      "logicalId":1121,
      "localityCode":"06018",
      "operatorId":9,
      "operatorName":"LIGNES d\u0027AZUR - CG06"
   },
   {
      "stopName":"Les Chappes",
      "longitude":7.0799518345573036,
      "latitude":43.615032273728318,
      "originalId":620587,
      "logicalId":1120,
      "localityCode":"06018",
      "operatorId":9,
      "operatorName":"LIGNES d\u0027AZUR - CG06"
   },
   {
      "stopName":"Place Fontaine du Temple",
      "longitude":7.2555521218037677,
      "latitude":43.72610439307288,
      "originalId":600709,
      "logicalId":171,
      "localityCode":"06088",
      "operatorId":9,
      "operatorName":"LIGNES d\u0027AZUR - CG06"
   },
   {
      "stopName":"Mistral",
      "longitude":7.2521786467260974,
      "latitude":43.725293950992992,
      "originalId":600937,
      "logicalId":229,
      "localityCode":"06088",
      "operatorId":9,
      "operatorName":"LIGNES d\u0027AZUR - CG06"
   },
   {
      "stopName":"Goiran",
      "longitude":7.2499146922690549,
      "latitude":43.724099822664456,
      "originalId":600474,
      "logicalId":1782,
      "localityCode":"06088",
      "operatorId":9,
      "operatorName":"LIGNES d\u0027AZUR - CG06"
   },
   {
      "stopName":"Deux Avenues",
      "longitude":7.2518947978282453,
      "latitude":43.719560822592094,
      "originalId":600325,
      "logicalId":75,
      "localityCode":"06088",
      "operatorId":9,
      "operatorName":"LIGNES d\u0027AZUR - CG06"
   },
   {
      "stopName":"Cyrnos",
      "longitude":7.2539526710420281,
      "latitude":43.715063285314152,
      "originalId":600304,
      "logicalId":1726,
      "localityCode":"06088",
      "operatorId":9,
      "operatorName":"LIGNES d\u0027AZUR - CG06"
   },
   {
      "stopName":"PN Gambetta",
      "longitude":7.2558934576381509,
      "latitude":43.710363887555133,
      "originalId":601063,
      "logicalId":259,
      "localityCode":"06088",
      "operatorId":9,
      "operatorName":"LIGNES d\u0027AZUR - CG06"
   },
   {
      "stopName":"Thiers / Gambetta",
      "longitude":7.2568159045599909,
      "latitude":43.701928154196914,
      "originalId":601297,
      "logicalId":2079,
      "localityCode":"06088",
      "operatorId":9,
      "operatorName":"LIGNES d\u0027AZUR - CG06"
   },
   {
      "stopName":"Alsace-Lorraine",
      "longitude":7.2561874527988088,
      "latitude":43.69795798447494,
      "originalId":600021,
      "logicalId":1618,
      "localityCode":"06088",
      "operatorId":9,
      "operatorName":"LIGNES d\u0027AZUR - CG06"
   },
   {
      "stopName":"Vernier / Gambetta",
      "longitude":7.2560125760703205,
      "latitude":43.707287346668409,
      "originalId":601349,
      "logicalId":2098,
      "localityCode":"06088",
      "operatorId":9,
      "operatorName":"LIGNES d\u0027AZUR - CG06"
   },
   {
      "stopName":"Gambetta / France",
      "longitude":7.2563424359770048,
      "latitude":43.696446909010781,
      "originalId":600452,
      "logicalId":1776,
      "localityCode":"06088",
      "operatorId":9,
      "operatorName":"LIGNES d\u0027AZUR - CG06"
   },
   {
      "stopName":"Santoline",
      "longitude":7.2013644526214966,
      "latitude":43.675481794930718,
      "originalId":600129,
      "logicalId":26,
      "localityCode":"06088",
      "operatorId":9,
      "operatorName":"LIGNES d\u0027AZUR - CG06"
   },
   {
      "stopName":"Aéroport / Promenade",
      "longitude":7.211374724314,
      "latitude":43.666457724266081,
      "originalId":600011,
      "logicalId":1611,
      "localityCode":"06088",
      "operatorId":9,
      "operatorName":"LIGNES d\u0027AZUR - CG06"
   },
   {
      "stopName":"Parking",
      "longitude":7.2279140578763563,
      "latitude":43.675302096599609,
      "originalId":600978,
      "logicalId":1975,
      "localityCode":"06088",
      "operatorId":9,
      "operatorName":"LIGNES d\u0027AZUR - CG06"
   },
   {
      "stopName":"Fabron / Promenade",
      "longitude":7.23852779363483,
      "latitude":43.686898546813332,
      "originalId":600401,
      "logicalId":1761,
      "localityCode":"06088",
      "operatorId":9,
      "operatorName":"LIGNES d\u0027AZUR - CG06"
   },
   {
      "stopName":"Magnan / Promenade",
      "longitude":7.24656812235207,
      "latitude":43.690910862565033,
      "originalId":600893,
      "logicalId":1925,
      "localityCode":"06088",
      "operatorId":9,
      "operatorName":"LIGNES d\u0027AZUR - CG06"
   },
   {
      "stopName":"Gambetta / Promenade",
      "longitude":7.2555458568013043,
      "latitude":43.693547123879654,
      "originalId":600449,
      "logicalId":1777,
      "localityCode":"06088",
      "operatorId":9,
      "operatorName":"LIGNES d\u0027AZUR - CG06"
   },
   {
      "stopName":"Albert 1er/Phocéens",
      "longitude":7.2692170400374021,
      "latitude":43.695329375498957,
      "originalId":600012,
      "logicalId":1614,
      "localityCode":"06088",
      "operatorId":9,
      "operatorName":"LIGNES d\u0027AZUR - CG06"
   },
   {
      "stopName":"Cathédrale - Vieille Ville",
      "longitude":7.2763645153271481,
      "latitude":43.698452704552146,
      "originalId":601426,
      "logicalId":338,
      "localityCode":"06088",
      "operatorId":9,
      "operatorName":"LIGNES d\u0027AZUR - CG06"
   },
      {
      "stopName":"Lycée Masséna",
      "longitude":7.2756514319094183,
      "latitude":43.6988184899805,
      "originalId":600873,
      "logicalId":217,
      "localityCode":"06088",
      "operatorId":9,
      "operatorName":"LIGNES d\u0027AZUR - CG06"
   },
   {
      "stopName":"Gustave V",
      "longitude":7.2656166612830706,
      "latitude":43.695034136237723,
      "originalId":600496,
      "logicalId":1790,
      "localityCode":"06088",
      "operatorId":9,
      "operatorName":"LIGNES d\u0027AZUR - CG06"
   },
   {
      "stopName":"Gambetta / Promenade",
      "longitude":7.25551112114792,
      "latitude":43.693719819574312,
      "originalId":600448,
      "logicalId":1777,
      "localityCode":"06088",
      "operatorId":9,
      "operatorName":"LIGNES d\u0027AZUR - CG06"
   },
   {
      "stopName":"Magnan / Promenade",
      "longitude":7.2450180840745482,
      "latitude":43.690494870119331,
      "originalId":600890,
      "logicalId":1925,
      "localityCode":"06088",
      "operatorId":9,
      "operatorName":"LIGNES d\u0027AZUR - CG06"
   },
   {
      "stopName":"Fabron / Promenade",
      "longitude":7.2386459783727286,
      "latitude":43.687262436281557,
      "originalId":600398,
      "logicalId":1761,
      "localityCode":"06088",
      "operatorId":9,
      "operatorName":"LIGNES d\u0027AZUR - CG06"
   },
   {
      "stopName":"Carras / Promenade",
      "longitude":7.22899495342472,
      "latitude":43.677630749422576,
      "originalId":600410,
      "logicalId":40,
      "localityCode":"06088",
      "operatorId":9,
      "operatorName":"LIGNES d\u0027AZUR - CG06"
   },
   {
      "stopName":"La Vallière / Promenade",
      "longitude":7.2235564915224844,
      "latitude":43.670789049064879,
      "originalId":600639,
      "logicalId":1836,
      "localityCode":"06088",
      "operatorId":9,
      "operatorName":"LIGNES d\u0027AZUR - CG06"
   },
   {
      "stopName":"Aéroport / Promenade",
      "longitude":7.212809032840318,
      "latitude":43.666402069054961,
      "originalId":600008,
      "logicalId":1611,
      "localityCode":"06088",
      "operatorId":9,
      "operatorName":"LIGNES d\u0027AZUR - CG06"
   },
   {
      "stopName":"Gambetta / France",
      "longitude":7.2563424359770048,
      "latitude":43.696446909010781,
      "originalId":600452,
      "logicalId":1776,
      "localityCode":"06088",
      "operatorId":9,
      "operatorName":"LIGNES d\u0027AZUR - CG06"
   },
   {
      "stopName":"Alsace-Lorraine",
      "longitude":7.2563582977570444,
      "latitude":43.698211395481636,
      "originalId":600022,
      "logicalId":1618,
      "localityCode":"06088",
      "operatorId":9,
      "operatorName":"LIGNES d\u0027AZUR - CG06"
   },
   {
      "stopName":"Thiers / Gambetta",
      "longitude":7.256173712750404,
      "latitude":43.702110457431125,
      "originalId":601296,
      "logicalId":2079,
      "localityCode":"06088",
      "operatorId":9,
      "operatorName":"LIGNES d\u0027AZUR - CG06"
   },
   {
      "stopName":"Vernier / Gambetta",
      "longitude":7.2560935871359122,
      "latitude":43.706644222167832,
      "originalId":601348,
      "logicalId":2098,
      "localityCode":"06088",
      "operatorId":9,
      "operatorName":"LIGNES d\u0027AZUR - CG06"
   },
   {
      "stopName":"PN Gambetta",
      "longitude":7.2559058889482726,
      "latitude":43.710651522378363,
      "originalId":601061,
      "logicalId":259,
      "localityCode":"06088",
      "operatorId":9,
      "operatorName":"LIGNES d\u0027AZUR - CG06"
   },
   {
      "stopName":"Cyrnos",
      "longitude":7.2536884220960252,
      "latitude":43.715741753940939,
      "originalId":600303,
      "logicalId":1726,
      "localityCode":"06088",
      "operatorId":9,
      "operatorName":"LIGNES d\u0027AZUR - CG06"
   },
   {
      "stopName":"Deux Avenues",
      "longitude":7.2514743060803442,
      "latitude":43.720012217570364,
      "originalId":600327,
      "logicalId":75,
      "localityCode":"06088",
      "operatorId":9,
      "operatorName":"LIGNES d\u0027AZUR - CG06"
   },
   {
      "stopName":"Goiran",
      "longitude":7.2495684055108356,
      "latitude":43.724836042916131,
      "originalId":601455,
      "logicalId":1782,
      "localityCode":"06088",
      "operatorId":9,
      "operatorName":"LIGNES d\u0027AZUR - CG06"
   },
   {
      "stopName":"Mistral",
      "longitude":7.2521175688750539,
      "latitude":43.725305730734533,
      "originalId":600938,
      "logicalId":229,
      "localityCode":"06088",
      "operatorId":9,
      "operatorName":"LIGNES d\u0027AZUR - CG06"
   },
   {
      "stopName":"Place Fontaine du Temple",
      "longitude":7.2558350957858195,
      "latitude":43.726073521965873,
      "originalId":601476,
      "logicalId":171,
      "localityCode":"06088",
      "operatorId":9,
      "operatorName":"LIGNES d\u0027AZUR - CG06"
   },
   {
      "stopName":"Santoline",
      "longitude":7.2017222365529419,
      "latitude":43.675312607295446,
      "originalId":601207,
      "logicalId":26,
      "localityCode":"06088",
      "operatorId":9,
      "operatorName":"LIGNES d\u0027AZUR - CG06"
   },
   {
      "stopName":"Les Chappes",
      "longitude":7.0801231410873529,
      "latitude":43.615303889414527,
      "originalId":620547,
      "logicalId":1120,
      "localityCode":"06018",
      "operatorId":9,
      "operatorName":"LIGNES d\u0027AZUR - CG06"
   },
   {
      "stopName":"Les Templiers",
      "longitude":7.0740404449603149,
      "latitude":43.617407604670241,
      "originalId":620548,
      "logicalId":1121,
      "localityCode":"06018",
      "operatorId":9,
      "operatorName":"LIGNES d\u0027AZUR - CG06"
   },
   {
      "stopName":"Inria",
      "longitude":7.0680846444075094,
      "latitude":43.616488966320439,
      "originalId":620549,
      "logicalId":1118,
      "localityCode":"06018",
      "operatorId":9,
      "operatorName":"LIGNES d\u0027AZUR - CG06"
   },
   {
      "stopName":"A.Caquot",
      "longitude":7.061336357033948,
      "latitude":43.617027330429906,
      "originalId":620550,
      "logicalId":1116,
      "localityCode":"06018",
      "operatorId":9,
      "operatorName":"LIGNES d\u0027AZUR - CG06"
   },
   {
      "stopName":"Les Belugues",
      "longitude":7.0583475345968285,
      "latitude":43.617707218554926,
      "originalId":620551,
      "logicalId":810,
      "localityCode":"06018",
      "operatorId":9,
      "operatorName":"LIGNES d\u0027AZUR - CG06"
   },
   {
      "stopName":"Skema (Céram)",
      "longitude":7.0554645132726037,
      "latitude":43.614258478318938,
      "originalId":620552,
      "logicalId":3647,
      "localityCode":"06152",
      "operatorId":9,
      "operatorName":"LIGNES d\u0027AZUR - CG06"
   },
   {
      "stopName":"Sophie Laffite",
      "longitude":7.0544688827270612,
      "latitude":43.615436477633253,
      "originalId":620553,
      "logicalId":2482,
      "localityCode":"06152",
      "operatorId":9,
      "operatorName":"LIGNES d\u0027AZUR - CG06"
   },
   {
      "stopName":"La Bouillide",
      "longitude":7.0557110383729782,
      "latitude":43.619740278319021,
      "originalId":620554,
      "logicalId":811,
      "localityCode":"06152",
      "operatorId":9,
      "operatorName":"LIGNES d\u0027AZUR - CG06"
   },
   {
      "stopName":"Eganaude",
      "longitude":7.0577641327943734,
      "latitude":43.623027201899568,
      "originalId":620555,
      "logicalId":812,
      "localityCode":"06018",
      "operatorId":9,
      "operatorName":"LIGNES d\u0027AZUR - CG06"
   },
   {
      "stopName":"Les Bruscs",
      "longitude":7.0539359882244685,
      "latitude":43.6269761418269,
      "originalId":620556,
      "logicalId":2471,
      "localityCode":"06152",
      "operatorId":9,
      "operatorName":"LIGNES d\u0027AZUR - CG06"
   },
   {
      "stopName":"Pompidou",
      "longitude":7.0496026313444782,
      "latitude":43.624878107251341,
      "originalId":620557,
      "logicalId":2480,
      "localityCode":"06152",
      "operatorId":9,
      "operatorName":"LIGNES d\u0027AZUR - CG06"
   },
   {
      "stopName":"Garbejaire",
      "longitude":7.0451544491598588,
      "latitude":43.623757369928043,
      "originalId":620558,
      "logicalId":2466,
      "localityCode":"06152",
      "operatorId":9,
      "operatorName":"LIGNES d\u0027AZUR - CG06"
   },
   {
      "stopName":"Les Cardoulines",
      "longitude":7.0416017439602561,
      "latitude":43.625902005380063,
      "originalId":620559,
      "logicalId":2472,
      "localityCode":"06152",
      "operatorId":9,
      "operatorName":"LIGNES d\u0027AZUR - CG06"
   },
   {
      "stopName":"Sophia - Gare routière",
      "longitude":7.0374694808069069,
      "latitude":43.623875792838604,
      "originalId":620560,
      "logicalId":2467,
      "localityCode":"06152",
      "operatorId":9,
      "operatorName":"LIGNES d\u0027AZUR - CG06"
   },
   {
      "stopName":"Les Genêts",
      "longitude":7.0317611877867252,
      "latitude":43.624412047392227,
      "originalId":620931,
      "logicalId":2474,
      "localityCode":"06152",
      "operatorId":9,
      "operatorName":"LIGNES d\u0027AZUR - CG06"
   },
   {
      "stopName":"Val Martin",
      "longitude":7.0144430789131791,
      "latitude":43.623731326293942,
      "originalId":620561,
      "logicalId":2485,
      "localityCode":"06152",
      "operatorId":9,
      "operatorName":"LIGNES d\u0027AZUR - CG06"
   },
   {
      "stopName":"Peyniblou",
      "longitude":7.0079500012422109,
      "latitude":43.623660999438066,
      "originalId":620562,
      "logicalId":813,
      "localityCode":"06152",
      "operatorId":9,
      "operatorName":"LIGNES d\u0027AZUR - CG06"
   },
   {
      "stopName":"La Petite Ferme",
      "longitude":7.001163467500735,
      "latitude":43.6239270884067,
      "originalId":620563,
      "logicalId":2470,
      "localityCode":"06152",
      "operatorId":9,
      "operatorName":"LIGNES d\u0027AZUR - CG06"
   },
   {
      "stopName":"Les Fauvettes",
      "longitude":6.9990367596332774,
      "latitude":43.625036286951563,
      "originalId":620564,
      "logicalId":814,
      "localityCode":"06152",
      "operatorId":9,
      "operatorName":"LIGNES d\u0027AZUR - CG06"
   },
   {
      "stopName":"La Carrière",
      "longitude":6.9994354127143223,
      "latitude":43.6309436532683,
      "originalId":620565,
      "logicalId":2469,
      "localityCode":"06152",
      "operatorId":9,
      "operatorName":"LIGNES d\u0027AZUR - CG06"
   },
   {
      "stopName":"Val de Cuberte",
      "longitude":7.001539273963342,
      "latitude":43.633932228376388,
      "originalId":620570,
      "logicalId":2484,
      "localityCode":"06152",
      "operatorId":9,
      "operatorName":"LIGNES d\u0027AZUR - CG06"
   },
   {
      "stopName":"Hauts de Valbonne",
      "longitude":7.0024268763790634,
      "latitude":43.634947385150795,
      "originalId":620566,
      "logicalId":2468,
      "localityCode":"06152",
      "operatorId":9,
      "operatorName":"LIGNES d\u0027AZUR - CG06"
   },
   {
      "stopName":"Pont de la Brague",
      "longitude":7.0051924122133933,
      "latitude":43.639320981671958,
      "originalId":620567,
      "logicalId":815,
      "localityCode":"06152",
      "operatorId":9,
      "operatorName":"LIGNES d\u0027AZUR - CG06"
   },
   {
      "stopName":"Hôtel de Ville",
      "longitude":7.007027044602653,
      "latitude":43.640241187786266,
      "originalId":620568,
      "logicalId":816,
      "localityCode":"06152",
      "operatorId":9,
      "operatorName":"LIGNES d\u0027AZUR - CG06"
   },
   {
      "stopName":"Village",
      "longitude":7.0069965650522263,
      "latitude":43.642457498045012,
      "originalId":620569,
      "logicalId":817,
      "localityCode":"06152",
      "operatorId":9,
      "operatorName":"LIGNES d\u0027AZUR - CG06"
   }
]